City_ID,City,Country,Max Temp,Current Description,Lat,Lng,Hotel Name
1,Rikitea,PF,78.33,few clouds,-23.1203,-134.9692,Chez Bianca & Benoit
2,Bengkulu,ID,73.9,overcast clouds,-3.8004,102.2655,Dena Hotel
4,Dolores,AR,86.2,overcast clouds,-36.3132,-57.6792,Plaza Hotel
6,Vaini,TO,78.96,broken clouds,-21.2,-175.2,Keleti International Resort
13,Axim,GH,78.96,few clouds,4.8699,-2.2405,Axim Beach Hotel
14,Makakilo City,US,75.18,broken clouds,21.3469,-158.0858,Embassy Suites by Hilton Oahu Kapolei
16,Kununurra,AU,76.98,overcast clouds,-15.7667,128.7333,Kununurra Country Club Resort
22,Cape Town,ZA,70.88,broken clouds,-33.9258,18.4232,Townhouse Hotel
25,Georgetown,MY,79.95,few clouds,5.4112,100.3354,Page 63 hostel
34,Mahebourg,MU,79.25,scattered clouds,-20.4081,57.7,Grand Bel Air
38,Hilo,US,89.28,clear sky,19.7297,-155.09,Dolphin Bay Hotel
39,Cidreira,BR,73.53,scattered clouds,-30.1811,-50.2056,Hotel Castelo
41,Puerto Ayora,EC,78.76,overcast clouds,-0.7393,-90.3518,Hostal La Mirada De Solitario George
52,Chuy,UY,76.05,scattered clouds,-33.6971,-53.4616,Alerces
57,Grand Gaube,MU,79.38,scattered clouds,-20.0064,57.6608,Coco Villa
62,Kavieng,PG,79.9,heavy intensity rain,-2.5744,150.7967,Kavieng Hotel
67,Vao,NC,75.27,few clouds,-22.6667,167.4833,Nataiwatch
69,Taltal,CL,70.0,few clouds,-25.4,-70.4833,Hostería Taltal
71,Sinnamary,GF,79.21,overcast clouds,5.3833,-52.95,Hôtel du fleuve
82,Tevaitoa,PF,81.32,broken clouds,-16.7833,-151.5,Chambre d'hote
84,Bajil,YE,77.07,few clouds,15.0584,43.2851,فندق و أجنحة الشرق الأوسط
86,Maxixe,MZ,75.02,scattered clouds,-23.8597,35.3472,Hotel Herry
93,Avarua,CK,77.05,broken clouds,-21.2078,-159.775,Paradise Inn
94,Kapaa,US,75.18,clear sky,22.0752,-159.319,Pono Kai Resort
96,Vallenar,CL,85.95,clear sky,-28.5708,-70.7581,Hotel del Marqués
97,Isangel,VU,81.63,overcast clouds,-19.55,169.2667,Tanna Lodge
100,Atuona,PF,78.49,clear sky,-9.8,-139.0333,Pearl Resort
101,Necochea,AR,71.51,clear sky,-38.5473,-58.7368,Cabañas Río Quequén
106,Sydney,AU,70.9,scattered clouds,-33.8679,151.2073,The Westin
118,Koumac,NC,76.48,few clouds,-20.5667,164.2833,Monitel Koumac
119,Port Blair,IN,80.64,mist,11.6667,92.75,Andaman Ocean Breeze
122,Hithadhoo,MV,80.35,scattered clouds,-0.6,73.0833,Pebbles Inn
124,Pisco,PE,71.02,mist,-13.7,-76.2167,La Portada
136,Souillac,MU,79.18,scattered clouds,-20.5167,57.5167,Hotel SkylineInn
138,Castro,BR,71.29,scattered clouds,-24.7911,-50.0119,Hotel Central Palace
140,Jardim,BR,77.18,overcast clouds,-21.4803,-56.1381,Hotel Uchôa
141,Huarmey,PE,74.1,overcast clouds,-10.0681,-78.1522,Hostal Santa Rosa
145,Alice Springs,AU,74.75,overcast clouds,-23.7,133.8833,Aurora Alice Springs
146,Nouakchott,MR,78.73,clear sky,18.0858,-15.9785,فندق أدرار
148,Limon,CR,84.06,few clouds,10.0,-83.0333,Hotel NG
149,Bubaque,GW,79.0,clear sky,11.2833,-15.8333,Chez Julio
151,Tena,EC,80.76,light rain,-0.9833,-77.8167,Hotel Villa Belén
153,Faanui,PF,81.45,broken clouds,-16.4833,-151.75,Oa Oa Lodge
162,Talara,PE,83.16,clear sky,-4.5772,-81.2719,Hospedaje El Aypate
167,Mar Del Plata,AR,73.83,few clouds,-38.0023,-57.5575,Nuevo Ostende
176,Saint-Philippe,RE,78.39,light rain,-21.3585,55.7679,Le Baril
190,Sur,OM,71.01,clear sky,22.5667,59.5289,Sur Hotel
192,Imbituba,BR,75.18,broken clouds,-28.24,-48.6703,Silvestre Praia Hotel
193,Bouake,CI,77.79,scattered clouds,7.6895,-5.0218,Hôtel Arc-En-Ciel
194,Rocha,UY,80.62,overcast clouds,-34.4833,-54.3333,Hotel Municipal
198,Cairns,AU,77.07,light rain,-16.9167,145.7667,Cairns Queens Court Accommodation
203,Namatanai,PG,78.75,light rain,-3.6667,152.4333,Namatanai Hotel
205,Mackay,AU,71.69,overcast clouds,-21.15,149.2,Mackay Oceanside Central Apartment Hotel
207,Bathsheba,BB,78.64,few clouds,13.2167,-59.5167,Atlantis Hotel
213,Atar,MR,74.08,clear sky,20.5169,-13.0499,فندق سكليل
216,Saint-Pierre,RE,78.48,broken clouds,-21.3393,55.4781,Tropic Hotel
221,Cabo San Lucas,MX,77.61,scattered clouds,22.8909,-109.9124,Comfort Rooms
223,San Carlos De Bariloche,AR,71.46,clear sky,-41.1456,-71.3082,Kronos
224,Omboue,GA,77.0,moderate rain,-1.5746,9.2618,Georges Faustin Aurat
235,Olinda,BR,80.1,overcast clouds,-8.0089,-34.8553,Fidji Motel
236,Port-Gentil,GA,80.56,scattered clouds,-0.7193,8.7815,Tara-Mé
244,Mandera,KE,82.83,clear sky,3.9366,41.867,Kornesh Hotel and Lodging
247,Oistins,BB,78.53,clear sky,13.0667,-59.5333,The Abidah By Accra
258,Honiara,SB,78.17,overcast clouds,-9.4333,159.95,King Solomon Hotel
263,Santa Rosa,PH,76.1,overcast clouds,14.3122,121.1114,JARS RESORT
272,Salalah,OM,74.79,scattered clouds,17.0151,54.0924,Muscat International Hotel
275,Touros,BR,80.96,light rain,-5.1989,-35.4608,Pousada Atlântico
277,Oranjestad,AW,82.9,clear sky,12.524,-70.027,Hotel California
278,Flic En Flac,MU,79.52,scattered clouds,-20.2742,57.3631,Villas Caroline
279,Atambua,ID,73.45,overcast clouds,-9.1061,124.8925,Hotel Matahari
282,Cajati,BR,84.97,overcast clouds,-24.7361,-48.1228,Sueber
285,Kiama,AU,70.0,overcast clouds,-34.6833,150.8667,Nova Kiama
289,Port Shepstone,ZA,73.6,few clouds,-30.7414,30.455,The Spot Backpackers'
295,Koungou,YT,80.31,clear sky,-12.7336,45.2042,Hôtel Trévani
298,Coari,BR,77.2,overcast clouds,-4.085,-63.1414,Hotel Saúde
299,Madang,PG,75.85,overcast clouds,-5.2246,145.7966,Madang Star International
300,Bosaso,SO,75.43,clear sky,11.2842,49.1816,Bosaso hotel
310,Sao Filipe,CV,75.56,broken clouds,14.8961,-24.4956,Bela Vista
312,Tupancireta,BR,88.21,overcast clouds,-29.0806,-53.8358,Hotel Cassino
315,Hambantota,LK,74.12,overcast clouds,6.1241,81.1185,Oasis Aurweda Resort Hambathota
320,Yulara,AU,72.73,overcast clouds,-25.2406,130.9889,Outback Pioneer Hotel & Lodge
322,Inhambane,MZ,74.8,clear sky,-23.865,35.3833,Hotel de Inhambane
324,Tres Arroyos,AR,78.51,clear sky,-38.3739,-60.2798,Andrea Hotel
335,Tual,ID,82.89,overcast clouds,-5.6667,132.75,Suita
347,Valparaiso,CL,76.64,clear sky,-33.0393,-71.6273,Ibis Hotel
351,Charlestown,AU,71.82,clear sky,-32.95,151.6667,Warners Bay Hotel
352,Buchanan,LR,78.37,clear sky,5.8808,-10.0467,Phillipmena's Guesthouse
360,Kerrville,US,74.01,clear sky,30.0474,-99.1403,Inn Of The Hills
362,Manta,EC,78.93,scattered clouds,-0.95,-80.7333,La Gaviota
364,Villamontes,BO,87.28,overcast clouds,-21.25,-63.5,Hoterma
369,Ambilobe,MG,74.84,moderate rain,-13.2,49.05,Hôtel National
375,Mogadishu,SO,78.55,clear sky,2.0371,45.3438,SYL Hotel
380,San Cristobal,VE,77.18,broken clouds,7.7669,-72.225,Terra Sur
384,Dovers,VC,77.92,clear sky,12.8833,-61.1833,The Cotton House
388,Ciudad Bolivar,VE,87.46,overcast clouds,8.1222,-63.5497,Paoca
391,Hualmay,PE,73.35,overcast clouds,-11.0964,-77.6139,Hotel Mi Choacan
396,Karratha,AU,83.93,overcast clouds,-20.7377,116.8463,Karratha International Hotel
405,Robertsport,LR,80.58,clear sky,6.7533,-11.3686,Nana's Lodge
406,Namibe,AO,78.01,overcast clouds,-15.1961,12.1522,Hotel Chik Chik Namibe
407,Kahului,US,78.84,scattered clouds,20.8947,-156.47,Maui Seaside Hotel
408,Almeirim,BR,87.89,overcast clouds,-1.5233,-52.5817,Kapejar Hotel
416,Aquiraz,BR,82.18,overcast clouds,-3.9014,-38.3911,Pousada tia Fabíola
426,Tagusao,PH,75.79,moderate rain,9.1924,117.8141,"Shaman's Breath- Beach, Bed & Breakfast"
429,Port Hedland,AU,82.45,scattered clouds,-20.3167,118.5667,The Esplanade Hotel
434,Mecca,SA,73.51,overcast clouds,21.4267,39.8261,Rehab Al Marwa Hotel 1
439,Acapulco,MX,85.82,few clouds,16.8634,-99.8901,Hotel del Valle
440,Mabaruma,GY,76.21,overcast clouds,8.2,-59.7833,Monty Brooms Hotel
442,Vila Velha,BR,82.35,few clouds,-20.3297,-40.2925,Hotel Prainha
443,Lucea,JM,82.85,few clouds,18.451,-78.1736,Blue Paloma Bed And Breakfast
451,Jacareacanga,BR,83.55,overcast clouds,-6.2222,-57.7528,Hotel São Cristovão
454,Fayaoue,NC,80.31,few clouds,-20.65,166.5333,Hôtel Beaupré
459,Formosa,AR,75.96,moderate rain,-26.1775,-58.1781,Hotel Hostal del Rey
460,Chemax,MX,86.32,overcast clouds,20.65,-87.9333,Posada K'iin-Ha
467,La Esperanza,GT,71.08,light rain,14.8667,-91.5667,La Esperanza
469,San Rafael,AR,84.31,clear sky,-34.6177,-68.3301,Hotel Regional
471,Bombay,IN,73.38,haze,19.0144,72.8479,Hotel City Point
473,Cockburn Town,TC,80.56,scattered clouds,21.4612,-71.1419,The Salt Raker Inn
477,Bonito,BR,78.98,overcast clouds,-21.1211,-56.4819,Hotel Pousada Arauna
479,Richards Bay,ZA,73.83,overcast clouds,-28.783,32.0377,Protea Hotel
481,Kloulklubed,PW,83.26,broken clouds,7.0419,134.2556,The Adventures Inn
483,Padang,ID,73.45,light rain,-0.9492,100.3543,losmen Surya
486,Angol,CL,82.02,clear sky,-37.8,-72.7167,Club Social
489,Impfondo,CG,77.58,broken clouds,1.6381,18.0667,Tropicana
491,Neiafu,TO,81.28,broken clouds,-18.65,-173.9833,Port Wine Guest House
493,Ewa Beach,US,78.75,few clouds,21.3156,-158.0072,Hampton Inn & Suites Oahu/Kapolei
502,Kawalu,ID,71.67,overcast clouds,-7.3817,108.2082,Hotel Surya
507,Inongo,CD,72.88,broken clouds,-1.95,18.2667,Chez LELE IYOLO
509,Saint-Leu,RE,77.86,light rain,-21.15,55.2833,Iloha Seaview Hôtel
511,Lubao,PH,78.51,overcast clouds,14.9167,120.55,Hacienda de Gracia Resort
518,Koforidua,GH,75.72,scattered clouds,6.0941,-0.2591,Embassy & Diplomat Hotel
520,Tete,MZ,75.18,moderate rain,-16.1564,33.5867,Zambezi Hotel
522,Venado Tuerto,AR,85.77,clear sky,-33.7456,-61.9688,Hotel Salta
527,Geraldton,AU,82.81,scattered clouds,-28.7667,114.6,Ocean Centre Hotel
528,Bucerias,MX,78.78,clear sky,20.75,-105.3333,Royal Decameron Complex
530,Matara,LK,73.42,broken clouds,5.9485,80.5353,Villa Palm Breeze
531,Santa Marta,CO,85.89,clear sky,11.2408,-74.199,Casa Mita
537,Gretna,US,78.01,overcast clouds,29.9147,-90.054,Holiday Inn New Orleans West Bank Tower
538,Puerto El Triunfo,SV,83.98,clear sky,13.2833,-88.55,Motel Jardín
542,Sao Joao Da Barra,BR,82.49,scattered clouds,-21.6403,-41.0511,Pousada Mediterrâneo
556,Rivadavia,AR,87.26,clear sky,-33.1905,-68.4608,Hotel Pasambay
558,Palmas,BR,85.98,thunderstorm with light rain,-10.2128,-48.3603,Hotel Triângulo Mineiro
564,Marsh Harbour,BS,76.33,clear sky,26.5412,-77.0636,Lofty Fig Villas
566,Lodwar,KE,82.9,clear sky,3.1191,35.5973,Lodwar Modern Lodge
569,Santa Isabel Do Rio Negro,BR,71.8,moderate rain,-0.4139,-65.0192,Hotel Maikon
570,Kaduqli,SD,77.23,broken clouds,11.0167,29.7167,South Kordofan Hotel
574,Alappuzha,IN,75.94,clear sky,9.49,76.3264,Unnis Hotel
575,New Bern,US,73.42,clear sky,35.1085,-77.0441,DoubleTree by Hilton
581,Hervey Bay,AU,74.79,clear sky,-25.2986,152.8535,Hervey Bay Hotel
587,Lorengau,PG,82.83,overcast clouds,-2.0226,147.2712,Seeadler Bay Hotel
601,Correntina,BR,75.24,overcast clouds,-13.3433,-44.6367,Pousada Silva
602,Vanimo,PG,77.16,overcast clouds,-2.6741,141.3028,CBC Guesthouse
606,Champerico,GT,82.4,clear sky,14.3,-91.9167,Hotel y Restaurante El Submarino
607,Eyl,SO,76.84,scattered clouds,7.9803,49.8164,فندق ايل دابي
616,Bobo Dioulasso,BF,72.43,few clouds,11.1771,-4.2979,Teria
617,Acajutla,SV,83.93,scattered clouds,13.5928,-89.8275,Hotel Lara
619,Itarema,BR,81.52,overcast clouds,-2.9248,-39.9167,Pousada Oásis
624,Meulaboh,ID,75.42,overcast clouds,4.1363,96.1285,Hotel Meuligou
632,Cam Ranh,VN,75.16,scattered clouds,11.9214,109.1591,Khách sạn Thái Bình
639,Bartica,GY,82.72,overcast clouds,6.4,-58.6167,Rockville Hotel
640,Sokolo,ML,74.59,broken clouds,14.7328,-6.1219,Mairie de la Commune de Sokolo
641,La Libertad,EC,78.46,few clouds,-2.2333,-80.9,Hotel Mar Caribe
645,Limbe,CM,80.69,overcast clouds,4.0242,9.2149,WILLY MERCY HOTEL
647,Daru,PG,77.72,overcast clouds,-9.0763,143.2092,Kuki
649,Barabai,ID,73.87,moderate rain,-2.5833,115.3833,Hotel Bouraq
651,Pemba,MZ,75.45,light rain,-12.974,40.5178,Hotel Rafael
653,Mananjary,MG,75.58,light rain,-21.2167,48.3333,Ideal Hotel Annexe
656,Salinopolis,BR,81.32,few clouds,-0.6136,-47.3561,Hotel Salinópolis
657,Caravelas,BR,80.55,scattered clouds,-17.7125,-39.2481,Pousada dos Navegantes
658,Wilmington,US,73.99,clear sky,34.2257,-77.9447,Hell's Kitchen
668,Pangai,TO,79.99,overcast clouds,-19.8,-174.35,Billy's Place
672,Cumana,VE,78.98,scattered clouds,10.4635,-64.1775,Hotel Regina
685,Irece,BR,76.03,overcast clouds,-11.3042,-41.8558,Hotel Caraíbas
687,Pinar Del Rio,CU,82.51,broken clouds,22.4175,-83.6981,Hotel Vueltabajo
691,Mbandaka,CD,75.11,overcast clouds,0.0487,18.2603,Hôtel Epervier
